[
  {
    "id": "6th-and-la-brea-los-angeles",
    "name": "6th and La Brea",
    "brewery_type": "brewpub",
    "street": "600 South La Brea Ave",
    "address_2": null,
    "address_3": null,
    "city": "Los Angeles",
    "state": "California",
    "county_province": null,
    "postal_code": "90036",
    "country": "United States",
    "longitude": "-118.3440213",
    "latitude": "34.0730485",
    "phone": null,
    "website_url": "http://www.6thlabrea.com",
    "updated_at": "2021-10-23T02:24:55.243Z",
    "created_at": "2021-10-23T02:24:55.243Z"
  },
  {
    "id": "angel-city-brewery-los-angeles",
    "name": "Angel City Brewery",
    "brewery_type": "micro",
    "street": "216 S Alameda St",
    "address_2": null,
    "address_3": null,
    "city": "Los Angeles",
    "state": "California",
    "county_province": null,
    "postal_code": "90012-4201",
    "country": "United States",
    "longitude": "-118.237715",
    "latitude": "34.04627065",
    "phone": "2136221261",
    "website_url": "http://www.angelcitybrewery.com",
    "updated_at": "2021-10-23T02:24:55.243Z",
    "created_at": "2021-10-23T02:24:55.243Z"
  },
  {
    "id": "arts-district-brewing-company-los-angeles",
    "name": "Arts District Brewing Company",
    "brewery_type": "brewpub",
    "street": "828 Traction Ave",
    "address_2": null,
    "address_3": null,
    "city": "Los Angeles",
    "state": "California",
    "county_province": null,
    "postal_code": "90013-1816",
    "country": "United States",
    "longitude": "-118.2357029",
    "latitude": "34.04505443",
    "phone": null,
    "website_url": null,
    "updated_at": "2021-10-23T02:24:55.243Z",
    "created_at": "2021-10-23T02:24:55.243Z"
  },
  {
    "id": "bonaventure-brewing-co-los-angeles",
    "name": "Bonaventure Brewing Co",
    "brewery_type": "brewpub",
    "street": "404 S Figueroa St Ste 418A",
    "address_2": null,
    "address_3": null,
    "city": "Los Angeles",
    "state": "California",
    "county_province": null,
    "postal_code": "90071-1797",
    "country": "United States",
    "longitude": "-118.25621133130265",
    "latitude": "34.05314633969862",
    "phone": "2132360802",
    "website_url": "http://www.bonaventurebrewing.com",
    "updated_at": "2021-10-23T02:24:55.243Z",
    "created_at": "2021-10-23T02:24:55.243Z"
  },
  {
    "id": "boomtown-brewery-los-angeles",
    "name": "Boomtown Brewery",
    "brewery_type": "micro",
    "street": "700 Jackson St",
    "address_2": null,
    "address_3": null,
    "city": "Los Angeles",
    "state": "California",
    "county_province": null,
    "postal_code": "90012-3443",
    "country": "United States",
    "longitude": "-118.233179",
    "latitude": "34.0507711",
    "phone": "2136178497",
    "website_url": "http://www.boomtownbrew.com",
    "updated_at": "2021-10-23T02:24:55.243Z",
    "created_at": "2021-10-23T02:24:55.243Z"
  },
  {
    "id": "dry-river-brewing-los-angeles",
    "name": "Dry River Brewing",
    "brewery_type": "micro",
    "street": "671 S Anderson St",
    "address_2": null,
    "address_3": null,
    "city": "Los Angeles",
    "state": "California",
    "county_province": null,
    "postal_code": "90023-1110",
    "country": "United States",
    "longitude": "-118.2233015",
    "latitude": "34.03638739",
    "phone": "2133755235",
    "website_url": "http://www.dryriverbrewing.com",
    "updated_at": "2021-10-23T02:24:55.243Z",
    "created_at": "2021-10-23T02:24:55.243Z"
  },
  {
    "id": "eagle-rock-brewery-los-angeles",
    "name": "Eagle Rock Brewery",
    "brewery_type": "micro",
    "street": "3056 Roswell St",
    "address_2": null,
    "address_3": null,
    "city": "Los Angeles",
    "state": "California",
    "county_province": null,
    "postal_code": "90065-2214",
    "country": "United States",
    "longitude": "-118.2440377",
    "latitude": "34.11473143",
    "phone": "3232577866",
    "website_url": "http://www.eaglerockbrewery.com",
    "updated_at": "2021-10-23T02:24:55.243Z",
    "created_at": "2021-10-23T02:24:55.243Z"
  },
  {
    "id": "einstok-beer-company-los-angeles",
    "name": "Einstok Beer Company",
    "brewery_type": "contract",
    "street": "12381 Wilshire Blvd Suite 105",
    "address_2": null,
    "address_3": null,
    "city": "Los Angeles",
    "state": "California",
    "county_province": null,
    "postal_code": "90025",
    "country": "United States",
    "longitude": "-118.47041656013864",
    "latitude": "34.04234970384491",
    "phone": "4242180179",
    "website_url": "http://einstokbeer.com",
    "updated_at": "2021-10-23T02:24:55.243Z",
    "created_at": "2021-10-23T02:24:55.243Z"
  },
  {
    "id": "frogtown-brewery-los-angeles",
    "name": "Frogtown Brewery",
    "brewery_type": "micro",
    "street": "2931 Gilroy St",
    "address_2": null,
    "address_3": null,
    "city": "Los Angeles",
    "state": "California",
    "county_province": null,
    "postal_code": "90039-2817",
    "country": "United States",
    "longitude": "-118.2515209",
    "latitude": "34.10656552",
    "phone": "3234522739",
    "website_url": "http://www.frogtownbrewery.com",
    "updated_at": "2021-10-23T02:24:55.243Z",
    "created_at": "2021-10-23T02:24:55.243Z"
  },
  {
    "id": "golden-road-brewing-los-angeles",
    "name": "Golden Road Brewing",
    "brewery_type": "large",
    "street": "5430 W San Fernando Rd",
    "address_2": null,
    "address_3": null,
    "city": "Los Angeles",
    "state": "California",
    "county_province": null,
    "postal_code": "90039-1015",
    "country": "United States",
    "longitude": "-118.2744780601361",
    "latitude": "34.15049571116468",
    "phone": "2135426039",
    "website_url": "http://www.goldenroad.la",
    "updated_at": "2021-10-23T02:24:55.243Z",
    "created_at": "2021-10-23T02:24:55.243Z"
  },
  {
    "id": "highland-park-brewery-los-angeles-1",
    "name": "Highland Park Brewery",
    "brewery_type": "micro",
    "street": "5125 York Blvd",
    "address_2": null,
    "address_3": null,
    "city": "Los Angeles",
    "state": "California",
    "county_province": null,
    "postal_code": "90042",
    "country": "United States",
    "longitude": "-118.1807106",
    "latitude": "34.1141508",
    "phone": "4255011255",
    "website_url": "http://www.hpb.la",
    "updated_at": "2021-10-23T02:24:55.243Z",
    "created_at": "2021-10-23T02:24:55.243Z"
  },
  {
    "id": "highland-park-brewery-los-angeles-2",
    "name": "Highland Park Brewery",
    "brewery_type": "brewpub",
    "street": "1229 N Spring St",
    "address_2": null,
    "address_3": null,
    "city": "Los Angeles",
    "state": "California",
    "county_province": null,
    "postal_code": "90012",
    "country": "United States",
    "longitude": "-118.2339922",
    "latitude": "34.06593582",
    "phone": "3237396459",
    "website_url": null,
    "updated_at": "2021-10-23T02:24:55.243Z",
    "created_at": "2021-10-23T02:24:55.243Z"
  },
  {
    "id": "homage-brewing-los-angeles",
    "name": "Homage Brewing",
    "brewery_type": "micro",
    "street": "1219 N Main St",
    "address_2": null,
    "address_3": null,
    "city": "Los Angeles",
    "state": "California",
    "county_province": null,
    "postal_code": "90012",
    "country": "United States",
    "longitude": "-118.23248153315227",
    "latitude": "34.064608601108674",
    "phone": null,
    "website_url": "http://www.homagebrewing.com/",
    "updated_at": "2022-03-26T05:18:40.285Z",
    "created_at": "2022-03-26T05:18:40.285Z"
  },
  {
    "id": "indie-brewing-company-los-angeles",
    "name": "Indie Brewing Company",
    "brewery_type": "micro",
    "street": "2350 Sunrise St",
    "address_2": null,
    "address_3": null,
    "city": "Los Angeles",
    "state": "California",
    "county_province": null,
    "postal_code": "90023-1036",
    "country": "United States",
    "longitude": "-118.22273911596014",
    "latitude": "34.0358528978437",
    "phone": "3233544285",
    "website_url": "http://indiebrewco.com",
    "updated_at": "2021-10-23T02:24:55.243Z",
    "created_at": "2021-10-23T02:24:55.243Z"
  },
  {
    "id": "iron-triangle-brewing-company-los-angeles",
    "name": "Iron Triangle Brewing Company",
    "brewery_type": "micro",
    "street": "1581 Industrial St",
    "address_2": null,
    "address_3": null,
    "city": "Los Angeles",
    "state": "California",
    "county_province": null,
    "postal_code": "90021-1217",
    "country": "United States",
    "longitude": "-118.2373618",
    "latitude": "34.03612189",
    "phone": "3109905702",
    "website_url": "http://www.irontrianglebrewing.com",
    "updated_at": "2021-10-23T02:24:55.243Z",
    "created_at": "2021-10-23T02:24:55.243Z"
  },
  {
    "id": "karl-strauss-brewing-co-downtown-los-angeles-los-angeles",
    "name": "Karl Strauss Brewing Co - Downtown Los Angeles",
    "brewery_type": "brewpub",
    "street": "600 Wilshire Blvd Ste 100",
    "address_2": null,
    "address_3": null,
    "city": "Los Angeles",
    "state": "California",
    "county_province": null,
    "postal_code": "90017-3212",
    "country": "United States",
    "longitude": "-118.256154",
    "latitude": "34.047978",
    "phone": "2132282739",
    "website_url": null,
    "updated_at": "2021-10-23T02:24:55.243Z",
    "created_at": "2021-10-23T02:24:55.243Z"
  },
  {
    "id": "lawless-brewing-los-angeles",
    "name": "Lawless Brewing",
    "brewery_type": "planning",
    "street": null,
    "address_2": null,
    "address_3": null,
    "city": "Los Angeles",
    "state": "California",
    "county_province": null,
    "postal_code": "90068-1436",
    "country": "United States",
    "longitude": "-118.2427669",
    "latitude": "34.0536834",
    "phone": "8184567345",
    "website_url": "http://www.lawlessbeer.com",
    "updated_at": "2021-10-23T02:24:55.243Z",
    "created_at": "2021-10-23T02:24:55.243Z"
  },
  {
    "id": "mbf-brewing-co-los-angeles",
    "name": "MBF Brewing Co",
    "brewery_type": "closed",
    "street": "530 W 7th St Apt 401",
    "address_2": null,
    "address_3": null,
    "city": "Los Angeles",
    "state": "California",
    "county_province": null,
    "postal_code": "90014-2507",
    "country": "United States",
    "longitude": "-118.2564646313028",
    "latitude": "34.04700722596013",
    "phone": "8315217921",
    "website_url": "http://www.MBFcompany.com",
    "updated_at": "2021-10-23T02:24:55.243Z",
    "created_at": "2021-10-23T02:24:55.243Z"
  },
  {
    "id": "mumford-brewing-company-los-angeles",
    "name": "Mumford Brewing Company",
    "brewery_type": "micro",
    "street": "416 Boyd St",
    "address_2": null,
    "address_3": null,
    "city": "Los Angeles",
    "state": "California",
    "county_province": null,
    "postal_code": "90013-1631",
    "country": "United States",
    "longitude": "-118.2425998",
    "latitude": "34.0464181",
    "phone": "6263759353",
    "website_url": "http://www.mumfordbrewing.com",
    "updated_at": "2021-10-23T02:24:55.243Z",
    "created_at": "2021-10-23T02:24:55.243Z"
  },
  {
    "id": "ohana-brewing-co-los-angeles",
    "name": "Ohana Brewing Co",
    "brewery_type": "micro",
    "street": "1756 E 23rd St",
    "address_2": null,
    "address_3": null,
    "city": "Los Angeles",
    "state": "California",
    "county_province": null,
    "postal_code": "90058-1012",
    "country": "United States",
    "longitude": "-118.2415609",
    "latitude": "34.01575629",
    "phone": "6262822337",
    "website_url": "http://www.ohanabrew.com",
    "updated_at": "2021-10-23T02:24:55.243Z",
    "created_at": "2021-10-23T02:24:55.243Z"
  }
]
